evToday =[
  {
    "latitude": 1.2921,
    "longitude": 103.8559,
    "title": "EV Charging Point at Plaza Singapura",
    "description": "Located at the basement car park of Plaza Singapura, this EV charging point is easily accessible and convenient for shopping and dining."
  },
  {
    "latitude": 1.2894,
    "longitude": 103.8495,
    "title": "EV Charging Point at Suntec City",
    "description": "Located at the basement car park of Suntec City, this EV charging point is perfect for those visiting the mall or attending events at the convention center."
  },
  {
    "latitude": 1.2930,
    "longitude": 103.8567,
    "title": "EV Charging Point at Orchard Road",
    "description": "Located on Orchard Road, this EV charging point is perfect for those visiting the shopping district or the nearby parks."
  },
  {
    "latitude": 1.2953,
    "longitude": 103.8482,
    "title": "EV Charging Point at Raffles Place",
    "description": "Located at the basement car park of Raffles Place, this EV charging point is convenient for those working in the central business district."
  },
  {
    "latitude": 1.2979,
    "longitude": 103.8454,
    "title": "EV Charging Point at Marina Bay Sands",
    "description": "Located at the basement car park of Marina Bay Sands, this EV charging point is convenient for those visiting the resort or attending events at the convention center."
  },
  {
    "latitude": 1.3021,
    "longitude": 103.8365,
    "title": "EV Charging Point at Sentosa Island",
    "description": "Located on Sentosa Island, this EV charging point is perfect for those visiting the beaches or the theme parks."
  },
  {
    "latitude": 1.2986,
    "longitude": 103.8497,
    "title": "EV Charging Point at Singapore River",
    "description": "Located at the car park of Singapore River, this EV charging point is convenient for those visiting the historic district or the nearby restaurants and bars."
  },
  {
    "latitude": 1.2907,
    "longitude": 103.8542,
    "title": "EV Charging Point at Chinatown",
    "description": "Located in Chinatown, this EV charging point is perfect for those visiting the cultural district or the nearby temples and markets."
  },
  {
    "latitude": 1.3039,
    "longitude": 103.8303,
    "title": "EV Charging Point at Jurong East",
    "description": "Located in Jurong East, this EV charging point is convenient for those visiting the shopping malls or the nearby parks."
  },
  {
    "latitude": 1.2958,
    "longitude": 103.8517,
    "title": "EV Charging Point at Little India",
    "description": "Located in Little India, this EV charging point is perfect for those visiting the cultural district or the nearby temples and markets."
  },
  {
    "latitude": 1.3717,
    "longitude": 103.9479,
    "title": "EV Charging Point at Khatib MRT Station",
    "description": "Located at the car park of Khatib MRT station, this EV charging point will be convenient for those commuting or visiting the nearby shopping malls."
  },
  {
    "latitude": 1.3402,
    "longitude": 103.8918,
    "title": "EV Charging Point at Eunos MRT Station",
    "description": "Located at the car park of Eunos MRT station, this EV charging point will be convenient for those commuting or visiting the nearby shopping malls."
  },
  {
    "latitude": 1.3716,
    "longitude": 103.9367,
    "title": "EV Charging Point at Yio Chu Kang MRT Station",
    "description": "Located at the car park of Yio Chu Kang MRT station, this EV charging point will be convenient for those commuting or visiting the nearby shopping malls."
  },
  {
    "latitude": 1.3723,
    "longitude": 103.9448,
    "title": "EV Charging Point at Ang Mo Kio MRT Station",
    "description": "Located at the car park of Ang Mo Kio MRT station, this EV charging point will be convenient for those commuting or visiting the nearby shopping malls."
  },
  {
    "latitude": 1.3388,
    "longitude": 103.8965,
    "title": "EV Charging Point at Paya Lebar MRT Station",
    "description": "Located at the car park of Paya Lebar MRT station, this EV charging point will be convenient for those commuting or visiting the nearby shopping malls."
  },
  {
    "latitude": 1.3361,
    "longitude": 103.9199,
    "title": "EV Charging Point at Expo MRT Station",
    "description": "Located at the car park of Expo MRT station, this EV charging point will be convenient for those commuting or visiting the nearby shopping malls."
  },
  {
    "latitude": 1.3711,
    "longitude": 103.9295,
    "title": "EV Charging Point at Marsiling MRT Station",
    "description": "Located at the car park of Marsiling MRT station, this EV charging point will be convenient for those commuting or visiting the nearby shopping malls."
  },
  {
    "latitude": 1.3349,
    "longitude": 103.8973,
    "title": "EV Charging Point at Aljunied MRT Station",
    "description": "Located at the car park of Aljunied MRT station, this EV charging point will be convenient for those commuting or visiting the nearby shopping malls."
  },
  {
    "latitude": 1.3379,
    "longitude": 103.9003,
    "title": "EV Charging Point at Kembangan MRT Station",
    "description": "Location at Kembangan MRT Station"
  }
]

ev2025 = [
  {
    "latitude": 1.3521,
    "longitude": 103.9350,
    "title": "EV Charging Point at Woodlands MRT Station (2025)",
    "description": "Located at the car park of Woodlands MRT station, this EV charging point will be convenient for those commuting or visiting the nearby shopping malls."
  },
  {
    "latitude": 1.3392,
    "longitude": 103.9079,
    "title": "EV Charging Point at Tampines MRT Station (2025)",
    "description": "Located at the car park of Tampines MRT station, this EV charging point will be convenient for those commuting or visiting the nearby shopping malls."
  },
  {
    "latitude": 1.3670,
    "longitude": 103.9450,
    "title": "EV Charging Point at Yishun MRT Station (2025)",
    "description": "Located at the car park of Yishun MRT station, this EV charging point will be convenient for those commuting or visiting the nearby shopping malls."
  },
  {
    "latitude": 1.3697,
    "longitude": 103.8824,
    "title": "EV Charging Point at Pasir Ris MRT Station (2025)",
    "description": "Located at the car park of Pasir Ris MRT station, this EV charging point will be convenient for those commuting or visiting the nearby shopping malls."
  },
  {
    "latitude": 1.3400,
    "longitude": 103.8840,
    "title": "EV Charging Point at Bedok MRT Station (2025)",
    "description": "Located at the car park of Bedok MRT station, this EV charging point will be convenient for those commuting or visiting the nearby shopping malls."
  },
  {
    "latitude": 1.3378,
    "longitude": 103.9073,
    "title": "EV Charging Point at Simei MRT Station (2025)",
    "description": "Located at the car park of Simei MRT station, this EV charging point will be convenient for those commuting or visiting the nearby shopping malls."
  },
  {
    "latitude": 1.3525,
    "longitude": 103.9656,
    "title": "EV Charging Point at Sembawang MRT Station (2025)",
    "description": "Located at the car park of Sembawang MRT station, this EV charging point will be convenient for those commuting or visiting the nearby shopping malls."
  },
  {
    "latitude": 1.3519,
    "longitude": 103.9584,
    "title": "EV Charging Point at Admiralty MRT Station (2025)",
    "description": "Located at the car park of Admiralty MRT station, this EV charging point will be convenient for those commuting or visiting the nearby shopping malls."
  },
  {
    "latitude": 1.3384,
    "longitude": 103.9127,
    "title": "EV Charging Point at Upper Changi MRT Station (2025)",
    "description": "Located a Upper Changi MRT Station"
  }
]

ev2030 = [
  {
    "latitude": 1.3385,
    "longitude": 103.8989,
    "title": "EV Charging Point at Bedok Reservoir MRT Station (2030)",
    "description": "Located at the car park of Bedok Reservoir MRT station, this EV charging point will be convenient for those commuting or visiting the nearby shopping malls."
  },
  {
    "latitude": 1.3356,
    "longitude": 103.9019,
    "title": "EV Charging Point at Dakota MRT Station (2030)",
    "description": "Located at the car park of Dakota MRT station, this EV charging point will be convenient for those commuting or visiting the nearby shopping malls."
  },
  {
    "latitude": 1.3389,
    "longitude": 103.9013,
    "title": "EV Charging Point at Mountbatten MRT Station (2030)",
    "description": "Located at the car park of Mountbatten MRT station, this EV charging point will be convenient for those commuting or visiting the nearby shopping malls."
  },
  {
    "latitude": 1.3400,
    "longitude": 103.8983,
    "title": "EV Charging Point at Stadium MRT Station (2030)",
    "description": "Located at the car park of Stadium MRT station, this EV charging point will be convenient for those commuting or visiting the nearby shopping malls."
  },
  {
    "latitude": 1.3375,
    "longitude": 103.9011,
    "title": "EV Charging Point at Paya Lebar Quarter (2030)",
    "description": "Located at the car park of Paya Lebar Quarter, this EV charging point will be convenient for those commuting or visiting the nearby shopping malls and offices."
  }
]


